query,query_norm,name,admin1,country_code,latitude,longitude,coord_source
Gia Lai,gia lai,gia lai,gia lai,VN,13.8079,108.1094,manual_fallback
Kon Tum,kon tum,kon tum,kon tum,VN,14.3497,108.0005,manual_fallback
Lâm Đồng,lam dong,lam dong,lam dong,VN,11.5753,108.1429,manual_fallback
Đắk Lắk,dak lak,dak lak,dak lak,VN,12.71,108.2378,manual_fallback
Đắk Nông,dak nong,dak nong,dak nong,VN,12.2646,107.6098,manual_fallback
